City_ID,City,Lat,Lng,Max Temp,Humidity,Cloudiness,Wind Speed,Country,Date
0,kidal,18.4411,1.4078,30.48,9,2,5.0,ML,1715234145
1,port elizabeth,-33.918,25.5701,18.16,82,100,1.54,ZA,1715234146
2,tiksi,71.6872,128.8694,-1.03,82,85,2.76,RU,1715234147
3,west island,-12.1568,96.8225,29.99,70,22,6.17,CC,1715234148
4,wailua homesteads,22.0669,-159.378,25.24,83,100,4.63,US,1715234148
5,adamstown,-25.066,-130.1015,21.79,78,69,3.22,PN,1715234149
6,udachny,66.4167,112.4,-4.2,68,91,6.48,RU,1715234150
7,avarua,-21.2078,-159.775,27.03,94,40,3.6,CK,1715234150
8,invercargill,-46.4,168.35,8.9,75,24,3.58,NZ,1715234151
9,balangir,20.7167,83.4833,36.75,31,69,3.2,IN,1715234152
10,sao joao da barra,-21.6403,-41.0511,23.37,92,8,3.48,BR,1715234152
11,petropavlovsk-kamchatsky,53.0452,158.6483,9.33,67,75,10.0,RU,1715234153
12,bilibino,68.0546,166.4372,1.78,80,42,0.91,RU,1715234153
13,bari,41.1177,16.8512,17.81,79,0,2.06,IT,1715234154
14,al mindak,20.1588,41.2834,22.78,21,0,0.22,SA,1715234155
15,erenhot,43.6475,111.9767,28.16,20,100,11.01,CN,1715234155
16,olonkinbyen,70.9221,-8.7187,-3.06,92,100,15.98,SJ,1715234156
17,albany,42.6001,-73.9662,14.23,77,35,0.89,US,1715234157
18,iskateley,67.6803,53.1512,-4.99,88,100,7.15,RU,1715234157
19,grytviken,-54.2811,-36.5092,-3.56,69,8,2.51,GS,1715234158
20,livingston,55.9029,-3.5226,12.49,93,40,3.6,GB,1715234159
21,la sarre,48.8002,-79.1996,5.18,75,99,4.04,CA,1715234159
22,kingston upon hull,53.7446,-0.3353,13.3,48,100,2.57,GB,1715234160
23,rabo de peixe,37.8,-25.5833,17.77,99,20,3.6,PT,1715234160
24,stanley,54.868,-1.6985,11.55,91,99,2.06,GB,1715234161
25,blackmans bay,-43.0167,147.3167,13.18,93,84,1.29,AU,1715234162
26,georgetown,5.4112,100.3354,32.97,62,20,4.63,MY,1715234162
27,melenki,55.3343,41.6295,1.46,64,61,5.91,RU,1715234163
28,lospalos,-8.5186,127.0025,26.57,68,18,4.45,TL,1715234163
29,port-aux-francais,-49.35,70.2167,5.88,86,95,9.85,TF,1715234164
30,waitangi,-43.9535,-176.5597,9.34,90,100,4.89,NZ,1715234165
31,punta arenas,-53.15,-70.9167,4.06,81,75,3.6,CL,1715234165
32,port alfred,-33.5906,26.891,16.77,99,49,0.89,ZA,1715234166
33,margate,51.3813,1.3862,9.27,94,100,2.02,GB,1715234166
34,mersa matruh,31.3525,27.2453,22.22,41,51,7.58,EG,1715234167
35,bodo,67.28,14.405,6.64,70,75,6.69,NO,1715234168
36,yellowknife,62.456,-114.3525,11.29,62,75,5.14,CA,1715234168
37,utrik,11.2278,169.8474,27.26,77,78,8.35,MH,1715234169
38,ola,59.5833,151.2833,3.41,78,52,3.1,RU,1715234170
39,ushuaia,-54.8,-68.3,-1.19,86,20,2.06,AR,1715234170
40,kodiak,57.79,-152.4072,1.73,69,100,4.63,US,1715234171
41,puerto natales,-51.7236,-72.4875,-1.21,99,100,0.97,CL,1715234172
42,inarajan village,13.2736,144.7484,31.08,88,64,5.81,GU,1715234172
43,tsiroanomandidy,-18.7667,46.0333,21.16,52,0,2.6,MG,1715234173
44,atafu village,-8.5421,-172.5159,29.8,70,100,1.94,TK,1715234173
45,island harbour,50.724,-1.2758,9.99,13,70,0.93,GB,1715234175
46,hawaiian paradise park,19.5933,-154.9731,22.8,92,75,2.57,US,1715234175
47,madalena,41.2162,-8.3345,17.39,62,100,2.24,PT,1715234176
48,hermanus,-34.4187,19.2345,13.13,80,0,2.05,ZA,1715234177
49,aldama,22.9167,-98.0667,26.55,71,88,2.63,MX,1715234178
50,bikenibeu village,1.3673,173.1241,29.01,75,63,4.62,KI,1715234178
51,nova sintra,14.8667,-24.7167,24.08,75,10,9.17,CV,1715234179
52,fortuna,40.5982,-124.1573,10.19,94,0,2.57,US,1715234179
53,dryden,49.7833,-92.7503,7.16,70,20,2.06,CA,1715234180
54,lihue,21.9789,-159.3672,25.58,82,100,4.63,US,1715234181
55,montevideo,-34.8335,-56.1674,11.4,62,20,5.66,UY,1715234181
56,chonchi,-42.6128,-73.8092,6.56,91,69,1.92,CL,1715234182
57,urumqi,43.801,87.6005,23.53,31,0,2.0,CN,1715234182
58,paphos,34.7667,32.4167,21.88,40,0,1.54,CY,1715234183
59,robertsport,6.7533,-11.3686,27.4,84,97,1.23,LR,1715234184
60,myanaung,18.2833,95.3167,39.73,26,0,3.58,MM,1715234185
61,isafjordur,66.0755,-23.124,1.61,79,27,6.01,IS,1715234185
62,tibanbang,6.6315,126.1055,29.11,70,19,1.31,PH,1715234186
63,nadi,-17.8,177.4167,26.0,57,20,5.66,FJ,1715234186
64,talnakh,69.4865,88.3972,-6.55,79,33,1.39,RU,1715234187
65,paita,-5.0892,-81.1144,21.03,76,98,5.03,PE,1715234188
66,mejit,10.2753,170.8646,27.6,83,88,8.5,MH,1715234188
67,laascaanood,8.4774,47.3597,29.27,55,37,5.39,SO,1715234189
68,choibalsan,48.0667,114.5,18.99,12,100,5.28,MN,1715234190
69,coquimbo,-29.9533,-71.3436,10.85,93,0,2.06,CL,1715234191
70,porangatu,-13.4408,-49.1486,21.46,72,2,1.61,BR,1715234191
71,carnarvon,-24.8667,113.6333,25.87,47,99,4.21,AU,1715234192
72,badger,64.8,-147.5333,13.95,45,75,6.17,US,1715234193
73,mogadishu,2.0371,45.3438,27.93,83,75,3.09,SO,1715234060
74,bonthe,7.5264,-12.505,27.25,84,100,1.52,SL,1715234194
75,edinburgh of the seven seas,-37.0676,-12.3116,14.38,68,100,13.19,SH,1715234194
76,amursk,50.2261,136.8994,14.32,27,97,4.52,RU,1715234195
77,miles city,46.4083,-105.8406,8.54,93,20,1.54,US,1715234196
78,papatowai,-46.5619,169.4708,6.34,74,23,4.9,NZ,1715234197
79,klyuchi,52.2667,79.1667,22.76,32,53,4.95,RU,1715234197
80,kone,-21.0595,164.8658,23.38,57,0,3.34,NC,1715234199
81,broken hill,-31.95,141.4333,17.18,70,100,2.75,AU,1715234110
82,tvoroyri,61.5556,-6.8111,7.26,74,77,3.21,FO,1715234200
83,al bawiti,28.3492,28.8659,26.15,9,0,4.52,EG,1715234200
84,bathsheba,13.2167,-59.5167,28.34,83,20,5.66,BB,1715234201
85,papao,-17.75,-149.55,26.82,80,72,8.74,PF,1715234202
86,iqaluit,63.7506,-68.5145,-5.15,79,75,2.06,CA,1715234202
87,aasiaat,68.7098,-52.8699,-10.32,81,25,3.07,GL,1715234203
88,qamdo,31.1667,97.2333,12.41,30,100,3.14,CN,1715234203
89,ilulissat,69.2167,-51.1,-15.64,96,44,2.91,GL,1715234204
90,vimmerby,57.6659,15.8552,10.12,80,96,3.16,SE,1715234205
91,formosa do rio preto,-11.0483,-45.1931,19.72,84,0,1.42,BR,1715234205
92,nuuk,64.1835,-51.7216,0.49,69,98,4.92,GL,1715234206
93,port mathurin,-19.6833,63.4167,25.56,74,99,11.42,MU,1715234206
94,urzhar,47.093,81.6294,26.22,20,0,4.57,KZ,1715234207
95,westport,41.1415,-73.3579,18.83,77,0,0.45,US,1715234208
96,al jubayl,27.0112,49.6583,26.76,49,1,7.08,SA,1715234208
97,callao,-12.0667,-77.15,20.4,88,100,1.54,PE,1715234209
98,las tablas,7.7667,-80.2833,26.21,99,100,1.45,PA,1715234209
99,taoudenni,22.6783,-3.9836,29.6,7,14,1.3,ML,1715234210
100,waingapu,-9.6567,120.2641,29.23,64,6,6.08,ID,1715234211
101,porbandar,21.6422,69.6093,30.23,61,0,4.67,IN,1715234211
102,ribeira grande,38.5167,-28.7,15.99,87,93,1.79,PT,1715234212
103,arraial do cabo,-22.9661,-42.0278,23.37,93,5,6.21,BR,1715234213
104,mersing,2.4312,103.8405,34.95,71,40,4.63,MY,1715234213
105,goure,13.9835,10.2704,30.63,13,57,3.2,NE,1715234214
106,stephenville,32.2207,-98.2023,24.52,64,0,0.0,US,1715234215
107,inongo,-1.95,18.2667,23.0,88,100,1.24,CD,1715234216
108,ouesso,1.6136,16.0517,24.07,84,100,1.36,CG,1715234216
109,celestun,20.8667,-90.4,30.18,63,99,5.85,MX,1715234217
110,sao paulo de olivenca,-3.3783,-68.8725,24.42,98,100,0.1,BR,1715234218
111,margaret river,-33.95,115.0667,22.24,38,100,8.3,AU,1715234218
112,dudinka,69.4058,86.1778,-6.29,89,77,5.36,RU,1715234219
113,tuy hoa,13.0833,109.3,31.19,64,68,4.49,VN,1715234219
114,tsiombe,-25.3,45.4833,24.85,60,0,2.64,MG,1715234220
115,tolanaro,-25.0319,46.9987,24.04,83,40,5.14,MG,1715234221
116,pisco,-13.7,-76.2167,18.34,94,14,1.54,PE,1715234221
117,santa elena de uairen,4.6167,-61.1333,20.04,96,93,0.94,VE,1715234222
118,kudahuvadhoo,2.6708,72.8944,29.52,73,100,3.85,MV,1715234223
119,arica,-18.475,-70.3042,18.75,72,100,2.57,CL,1715234224
120,thompson,55.7435,-97.8558,6.09,65,75,1.54,CA,1715234224
121,sur,22.5667,59.5289,35.55,39,0,1.38,OM,1715234225
122,farafangana,-22.8167,47.8333,23.96,74,75,4.35,MG,1715234225
123,mahajanga,-15.7167,46.3167,25.01,61,0,4.12,MG,1715234226
124,hakodate,41.7758,140.7367,11.17,66,40,4.12,JP,1715234227
125,mangalia,43.8,28.5833,14.61,86,98,7.53,RO,1715234227
126,kegen,43.0197,79.2203,21.17,33,64,2.29,KZ,1715234228
127,hassi messaoud,31.6804,6.0729,16.92,63,0,1.54,DZ,1715234228
128,daru,-9.0763,143.2092,25.18,93,100,7.35,PG,1715234229
129,port isabel,26.0734,-97.2086,29.02,88,100,5.14,US,1715234230
130,constantia,44.1833,28.65,12.61,77,91,8.01,RO,1715234231
131,kingston,17.997,-76.7936,28.53,79,20,2.57,JM,1715234231
132,luderitz,-26.6481,15.1594,15.16,76,0,5.98,NA,1715234232
133,onguday,50.75,86.15,19.76,35,63,1.3,RU,1715234233
134,fale old settlement,-9.3852,-171.2468,29.28,72,68,1.84,TK,1715234233
135,sarupathar,26.1984,93.8094,30.12,36,47,4.51,IN,1715234234
136,pacific grove,36.6177,-121.9166,16.25,73,0,1.79,US,1715234139
137,lazaro cardenas,17.9583,-102.2,23.24,84,37,0.98,MX,1715234077
138,fengkou,30.0833,113.2667,28.96,38,81,3.28,CN,1715234236
139,mammoth lakes,37.6485,-118.9721,1.4,44,0,5.66,US,1715234236
140,rancho palos verdes,33.7445,-118.387,16.56,89,0,0.89,US,1715234237
141,forster,-32.1667,152.5167,20.77,75,76,4.03,AU,1715234237
142,kobayashi,31.9833,130.9833,22.43,33,0,0.82,JP,1715234238
143,puli,23.9664,120.9695,31.23,68,97,2.31,TW,1715234239
144,amga,60.8953,131.9608,7.11,42,100,4.85,RU,1715234239
145,aripuana,-9.1667,-60.6333,24.86,85,58,0.47,BR,1715234240
146,tazovsky,67.4667,78.7,-6.36,86,28,3.02,RU,1715234241
147,bethel,41.3712,-73.414,17.03,79,0,1.54,US,1715234242
148,crolles,45.282,5.8782,13.62,86,7,0.84,FR,1715234242
149,dongola,19.1667,30.4833,29.09,6,40,4.89,SD,1715234243
150,puerto ayora,-0.7393,-90.3518,23.64,97,100,2.24,EC,1715234243
151,thunder bay,48.4001,-89.3168,7.99,61,0,3.09,CA,1715234244
152,la'ie,21.6477,-157.9253,25.98,80,25,0.89,US,1715234245
153,happy valley-goose bay,53.3168,-60.3315,1.17,64,100,5.66,CA,1715234245
154,egilsstadir,65.2653,-14.3948,0.95,75,0,1.03,IS,1715234246
155,igatpuri,19.7,73.55,32.33,38,9,3.21,IN,1715234247
156,wuchuan,21.4571,110.7659,28.56,63,82,7.71,CN,1715234247
157,palikir - national government center,6.9248,158.1611,30.47,79,100,6.69,FM,1715234248
158,taguatinga,-12.3857,-46.5711,22.43,49,8,2.81,BR,1715234248
159,faya-largeau,17.9257,19.1043,33.65,12,21,3.78,TD,1715234249
160,bubaque,11.2833,-15.8333,26.0,69,79,3.38,GW,1715234249
161,dawesville,30.9224,-84.0091,23.53,96,0,2.57,US,1715234250
162,enewetak,11.3474,162.3373,27.56,79,59,8.66,MH,1715234251
163,boende,-0.2167,20.8667,25.33,83,99,0.52,CD,1715234251
164,tura,25.5198,90.2201,33.57,31,7,2.51,IN,1715234252
165,timbuktu,16.7735,-3.0074,29.93,8,62,1.73,ML,1715234253
166,alice springs,-23.7,133.8833,23.75,38,75,4.63,AU,1715234112
167,ghadamis,30.1337,9.5007,16.97,58,80,3.35,LY,1715234254
168,ancud,-41.8697,-73.8203,9.15,72,99,5.63,CL,1715234255
169,ouahigouya,13.5828,-2.4216,30.82,38,44,3.28,BF,1715234255
170,kruisfontein,-34.0033,24.7314,14.38,80,8,1.6,ZA,1715234256
171,ketchikan,55.3422,-131.6461,9.26,93,100,3.09,US,1715234171
172,kamaishi,39.2667,141.8833,9.17,75,99,1.42,JP,1715234257
173,queenstown,-31.8976,26.8753,16.4,47,9,1.8,ZA,1715234258
174,cabo san lucas,22.8909,-109.9124,24.78,43,43,5.95,MX,1715234144
175,igarka,67.4667,86.5833,-0.55,99,100,5.81,RU,1715234259
176,tofol,5.3248,163.0078,28.19,80,100,7.4,FM,1715234260
177,douentza,14.9951,-2.9517,32.0,34,46,2.54,ML,1715234260
178,east london,-33.0153,27.9116,16.52,100,0,1.03,ZA,1715234261
179,vilyuysk,63.7553,121.6247,-3.89,95,100,4.02,RU,1715234262
180,nouadhibou,20.931,-17.0347,17.99,94,75,6.69,MR,1715234263
181,adler,43.43,39.92,16.09,77,100,2.0,RU,1715234263
182,jayapura,-2.5333,140.7,27.66,83,100,0.76,ID,1715234264
183,dolores,-36.3132,-57.6792,5.6,65,0,4.6,AR,1715234265
184,strathmore,51.0501,-113.3852,9.67,43,99,1.03,CA,1715234265
185,afaahiti,-17.75,-149.2833,25.93,79,77,7.79,PF,1715234266
186,kolonia,50.9333,6.95,12.2,92,100,1.54,DE,1715234266
187,olanchito,15.5,-86.5667,25.91,74,96,1.56,HN,1715234267
188,praia da vitoria,38.7333,-27.0667,16.14,94,20,4.5,PT,1715234267
189,ontario,34.0633,-117.6509,17.12,79,0,2.68,US,1715234138
190,formosa,-26.1775,-58.1781,15.02,83,7,4.51,AR,1715234269
191,aykhal,66.0,111.5,-4.57,75,91,7.16,RU,1715234269
192,ta`u,-14.2336,-169.5144,28.71,80,99,5.96,AS,1715234270
193,susuman,62.7833,148.1667,2.21,68,65,0.45,RU,1715234270
194,horta,38.5333,-28.6333,15.57,87,94,1.79,PT,1715234271
195,kapa'a,22.0752,-159.319,23.18,83,100,4.63,US,1715234272
196,whitehorse,60.7161,-135.0538,7.23,50,75,8.75,CA,1715234272
197,acarau,-2.8856,-40.12,25.07,92,62,4.18,BR,1715234273
198,katsuren-haebaru,26.3369,127.8719,25.43,53,20,5.14,JP,1715234274
199,ballina,-28.8667,153.5667,18.77,64,95,6.11,AU,1715234274
200,quesada,10.3238,-84.4271,23.73,96,94,1.35,CR,1715234275
201,qaqortoq,60.7167,-46.0333,0.7,72,99,2.12,GL,1715234275
202,remire-montjoly,4.9167,-52.2667,26.02,94,100,1.54,GF,1715234276
203,smara,26.7384,-11.6719,23.44,36,100,2.9,EH,1715234277
204,morant bay,17.8815,-76.4093,28.79,87,85,3.39,JM,1715234277
205,berezovyy,51.6667,135.7,11.75,31,72,7.12,RU,1715234278
206,mendi,-6.1761,143.6513,14.92,99,100,0.58,PG,1715234278
207,lompoc,34.6391,-120.4579,12.23,86,0,1.54,US,1715234132
208,kirakira,-10.4544,161.9205,27.36,84,94,3.91,SB,1715234280
209,tazacorte,28.629,-17.9293,20.08,49,0,4.12,ES,1715234280
210,san patricio,28.017,-97.5169,27.69,93,96,3.65,US,1715234281
211,matoury,4.8483,-52.3317,25.98,94,100,1.54,GF,1715234281
212,bredasdorp,-34.5322,20.0403,11.33,88,0,1.74,ZA,1715234282
213,santyoku,37.4406,129.1708,20.81,53,43,1.77,KR,1715234283
214,kedrovka,55.5333,86.05,15.49,30,81,0.69,RU,1715234283
215,sitka,57.0531,-135.33,5.17,94,100,1.94,US,1715234284
216,kaihua,23.3687,104.28,22.6,68,98,5.35,CN,1715234284
217,opuwo,-18.0607,13.84,21.95,54,60,1.94,NA,1715234285
218,labrador city,52.9463,-66.9114,-2.12,69,0,0.0,CA,1715234286
219,olinda,-8.0089,-34.8553,24.85,100,75,1.54,BR,1715234286
220,portland,45.5234,-122.6762,14.96,54,20,3.6,US,1715234124
221,sisimiut,66.9395,-53.6735,-6.24,80,23,3.6,GL,1715234287
222,lagos,6.5833,3.75,27.18,86,88,0.77,NG,1715234262
223,barcelos,41.5388,-8.6151,18.16,62,99,2.81,PT,1715234289
224,fort mcmurray,56.7268,-111.381,10.77,37,0,4.12,CA,1715234056
225,bethanie,-26.4833,17.15,20.36,32,42,2.19,NA,1715234290
226,hadibu,12.65,54.0333,30.47,62,30,0.64,YE,1715234290
227,kuta,-8.7233,115.1723,30.0,79,20,8.94,ID,1715234291
228,rebrikha,53.0733,82.3408,20.22,38,71,3.23,RU,1715234291
229,tete,-16.1564,33.5867,23.05,73,20,1.54,MZ,1715234292
230,carutapera,-1.195,-46.02,24.47,93,86,1.63,BR,1715234293
231,murashi,59.3999,48.9615,-2.62,87,100,5.55,RU,1715234293
232,pointe aux piments,-20.0628,57.5131,26.31,72,100,10.6,MU,1715234294
233,bowen,-20.0167,148.2333,25.13,68,100,7.68,AU,1715234295
234,lucapa,-8.4192,20.7447,22.95,64,93,1.59,AO,1715234295
235,revda,56.801,59.9303,5.06,56,82,6.47,RU,1715234296
236,san bernardo del viento,9.3533,-75.9524,25.86,90,80,3.9,CO,1715234296
237,aur,8.1499,171.1687,27.78,84,99,8.9,MH,1715234297
238,san antonio de pale,-1.4014,5.6325,27.03,86,17,3.37,GQ,1715234297
239,porto santo stefano,42.4338,11.1237,16.79,82,99,4.63,IT,1715234298
240,taber,49.8167,-112.1518,6.0,87,68,3.09,CA,1715234299
241,villa gesell,-37.2639,-56.973,6.14,64,7,9.45,AR,1715234299
242,ulladulla,-35.35,150.4667,17.22,77,90,0.54,AU,1715234300
243,newman,37.3138,-121.0208,18.99,41,0,1.79,US,1715234301
244,retreat,38.8245,-85.8533,19.14,99,67,0.89,US,1715234301
245,kpalime,6.9,0.6333,24.18,95,88,1.29,TG,1715234302
246,rechka-vydrino,51.485,104.8461,2.26,98,79,4.41,RU,1715234302
247,essaouira,31.5125,-9.77,16.72,94,96,1.03,MA,1715234303
248,paray-le-monial,46.4546,4.1158,8.42,99,100,1.54,FR,1715234304
249,koumra,8.9126,17.5539,28.9,48,86,2.18,TD,1715234304
250,meulaboh,4.1363,96.1285,30.06,68,51,3.17,ID,1715234305
251,boguchany,58.3814,97.4531,3.81,80,100,5.36,RU,1715234305
252,christchurch,-43.5333,172.6333,7.11,73,21,1.03,NZ,1715234042
253,korem,12.5058,39.5228,17.18,74,28,2.38,ET,1715234306
254,macau,22.2006,113.5461,28.89,69,20,6.69,MO,1715234307
255,mao,39.8885,4.2658,16.31,77,0,4.63,ES,1715234308
256,kanniyakumari,8.0833,77.5667,31.81,65,85,4.66,IN,1715234308
257,lebu,-37.6167,-73.65,7.56,85,33,1.96,CL,1715234309
258,caburan,5.9181,125.6411,27.81,74,57,4.17,PH,1715234309
259,pacasmayo,-7.4006,-79.5714,19.22,87,64,3.27,PE,1715234310
260,kulhudhuffushi,6.6221,73.07,29.92,73,78,4.54,MV,1715234310
261,northam,51.0333,-4.2167,9.78,96,84,2.25,GB,1715234311
262,port-vila,-17.7338,168.3219,24.78,61,75,4.63,VU,1715234312
263,madras,13.0878,80.2785,34.44,68,40,3.13,IN,1715234312
264,rosolina,45.0731,12.2486,17.84,74,100,4.11,IT,1715234313
265,mtama,-10.3,39.3667,24.63,87,56,2.44,TZ,1715234313
266,sarangani,5.4033,125.4636,28.82,75,29,8.18,PH,1715234314
267,gadzhiyevo,69.2551,33.3362,-1.93,84,98,1.6,RU,1715234315
268,crescent city,41.756,-124.2018,15.58,79,0,9.26,US,1715234315
269,longyearbyen,78.2186,15.6401,0.91,64,75,7.72,SJ,1715234316
270,cockburn town,21.4612,-71.1419,24.94,74,81,7.01,TC,1715234316
271,ust-nera,64.5667,143.2,5.73,59,92,2.45,RU,1715234317
272,upington,-28.4478,21.2561,15.21,51,0,1.54,ZA,1715234318
273,sao vicente,-23.9631,-46.3919,28.48,26,45,2.87,BR,1715234319
274,howard springs,-12.497,131.047,33.95,64,53,0.97,AU,1715234319
275,freetown,8.484,-13.2299,26.66,86,100,1.3,SL,1715234320
276,champagnole,46.7445,5.9135,10.87,71,0,2.42,FR,1715234320
277,la romana,18.4273,-68.9728,23.44,93,12,3.55,DO,1715234321
278,haiku-pauwela,20.9219,-156.3051,23.36,79,20,9.26,US,1715234322
279,bintulu,3.1667,113.0333,34.23,66,40,2.57,MY,1715234322
280,hilo,19.7297,-155.09,24.04,93,75,2.57,US,1715234277
281,navia,43.5354,-6.7194,13.49,80,63,1.45,ES,1715234323
282,pinheiro,-2.5214,-45.0825,23.57,97,67,0.39,BR,1715234324
283,sao mateus,-18.7161,-39.8589,21.64,100,23,1.23,BR,1715234325
284,nyurba,63.2842,118.3319,-0.78,82,100,3.63,RU,1715234325
285,kerikeri,-35.2268,173.9474,15.51,64,74,2.68,NZ,1715234326
286,kirovsk,48.6375,38.6428,9.27,56,91,4.99,UA,1715234327
287,rakops,-21.0167,24.3333,18.28,36,0,5.56,BW,1715234327
288,bulgan,48.8125,103.5347,17.47,33,40,5.95,MN,1715234328
289,kloulklubed,7.0419,134.2556,30.28,70,59,3.25,PW,1715234328
290,ghanzi,-21.5667,21.7833,18.91,33,0,5.53,BW,1715234329
291,kaa-khem,51.6833,94.7333,13.0,44,91,7.8,RU,1715234329
292,vorgashor,67.5833,63.95,-2.33,74,100,9.97,RU,1715234330
293,college,64.8569,-147.8028,13.99,51,75,6.17,US,1715234331
294,inyonga,-6.7167,32.0667,20.13,74,100,3.06,TZ,1715234331
295,carauari,-4.8828,-66.8958,23.85,99,98,0.49,BR,1715234332
296,basco,20.4487,121.9702,27.04,69,96,12.44,PH,1715234332
297,bambanglipuro,-7.95,110.2833,29.36,71,56,6.34,ID,1715234333
298,kolwezi,-10.7148,25.4667,17.48,64,99,5.42,CD,1715234333
299,sarigerme,36.7155,28.7044,16.73,88,75,2.06,TR,1715234334
300,walvis bay,-22.9575,14.5053,14.49,79,89,3.0,NA,1715234335
301,kiunga,-6.1219,141.2906,24.98,97,100,0.59,PG,1715234335
302,santa cruz,-17.8,-63.1667,19.7,100,75,7.72,BO,1715234147
303,las palmas,28.4204,-14.0131,18.44,60,0,2.57,ES,1715234337
304,meadow lakes,61.6247,-149.6011,4.55,90,100,3.09,US,1715234338
305,barkhan,29.8977,69.5256,33.95,10,1,3.0,PK,1715234340
306,zhob,31.3411,69.4481,30.74,14,48,0.4,PK,1715234340
307,hachinohe,40.5,141.5,8.98,72,100,2.2,JP,1715234341
308,puerto baquerizo moreno,-0.9,-89.6,22.75,89,100,4.33,EC,1715234341
309,sabang,5.8933,95.3214,29.68,70,51,3.34,ID,1715234342
310,cloquet,46.7216,-92.4594,9.26,65,0,2.06,US,1715234343
311,juegang,32.3174,121.1855,21.22,47,74,4.17,CN,1715234343
312,hithadhoo,-0.6,73.0833,29.24,75,83,5.26,MV,1715234344
313,tanah merah,5.8,102.15,37.78,44,100,1.77,MY,1715234344
314,gamba,-2.65,10.0,25.76,90,99,1.9,GA,1715234345
315,sona,45.4388,10.8255,16.81,88,75,1.54,IT,1715234346
316,kourou,5.1552,-52.6478,26.03,89,65,2.91,GF,1715234346
317,peterhead,57.5058,-1.7981,12.22,96,100,3.44,GB,1715234347
318,peace river,56.2501,-117.286,12.17,37,20,6.17,CA,1715234347
319,coruripe,-10.1256,-36.1756,24.91,92,82,3.96,BR,1715234348
320,enshi,30.3,109.4833,20.24,82,100,2.34,CN,1715234349
321,arar,30.9753,41.0381,21.01,21,0,3.09,SA,1715234349
322,fort st. john,56.2499,-120.8529,9.94,34,75,4.63,CA,1715234092
323,comodoro rivadavia,-45.8667,-67.5,0.92,93,0,2.06,AR,1715234350
324,kosh-agach,50.0,88.6667,11.28,35,4,0.89,RU,1715234352
325,urengoy,65.9667,78.3667,-1.69,96,87,2.57,RU,1715234352
326,gisborne,-38.6533,178.0042,11.04,72,100,11.75,NZ,1715234353
327,wenchang,30.904,118.4887,26.11,40,99,1.96,CN,1715234353
328,vilyuchinsk,52.9306,158.4028,10.15,70,86,6.62,RU,1715234354
329,port lincoln,-34.7333,135.8667,17.16,64,4,4.55,AU,1715234346
330,mili,6.0815,171.735,28.16,82,26,6.67,MH,1715234355
331,guerrero negro,27.9769,-114.0611,15.03,83,0,5.47,MX,1715234356
332,rongelap,11.1635,166.8941,27.22,78,72,8.13,MH,1715234356
333,synel'nykove,48.3204,35.5179,10.93,54,100,3.59,UA,1715234358
334,nkpor,6.1516,6.8446,25.46,88,100,1.46,NG,1715234358
335,san german,18.0816,-67.0449,26.35,63,2,1.34,PR,1715234359
336,wucheng,29.6008,118.175,24.46,52,100,0.85,CN,1715234359
337,ixtapa,20.7,-105.2,24.57,75,3,0.45,MX,1715234360
338,xai-xai,-25.0519,33.6442,21.48,78,8,1.24,MZ,1715234361
339,madugula,17.9167,82.8,30.58,45,0,2.68,IN,1715234361
340,medicine hat,50.0501,-110.6683,9.24,74,0,1.03,CA,1715234354
341,okha,53.5739,142.9478,6.81,57,84,9.39,RU,1715234339
342,uturoa,-16.7333,-151.4333,27.88,76,64,5.94,PF,1715234362
343,alofi,-19.0595,-169.9187,22.94,100,100,5.14,NU,1715234363
344,katsuura,35.1333,140.3,14.55,64,97,6.57,JP,1715234364
345,zaraza,9.3503,-65.3245,27.41,76,92,1.68,VE,1715234364
346,colonia,50.9333,6.95,12.2,92,100,1.54,DE,1715234290
347,wewak,-3.5534,143.6268,28.08,84,93,1.8,PG,1715234366
348,kudat,6.8837,116.8477,32.96,66,20,4.12,MY,1715234366
349,arawa,-6.2132,155.5367,27.12,92,99,1.73,PG,1715234367
350,boa vista,2.8197,-60.6733,26.99,83,20,1.03,BR,1715234367
351,kununurra,-15.7667,128.7333,32.99,31,59,4.12,AU,1715234353
352,sooke,48.3746,-123.7276,11.79,87,15,7.72,CA,1715234369
353,saipan,15.1355,145.701,32.39,62,40,6.69,MP,1715234338
354,illizi,26.4833,8.4667,19.89,42,10,2.38,DZ,1715234370
355,holmsund,63.706,20.3641,3.3,80,100,1.54,SE,1715234370
356,tawau,4.2498,117.8871,31.07,73,16,1.5,MY,1715234371
357,broome,42.2506,-75.833,13.16,87,75,2.24,US,1715234341
358,ar rutbah,33.0381,40.2848,21.93,25,1,3.28,IQ,1715234373
359,codrington,-38.2667,141.9667,17.9,58,75,4.15,AU,1715234373
360,carmarthen,51.8555,-4.3054,11.2,100,81,2.06,GB,1715234374
361,ivdel',60.6911,60.4206,4.55,99,100,1.79,RU,1715234375
362,mount gambier,-37.8333,140.7667,17.34,49,33,2.45,AU,1715234375
363,ascension,30.2169,-90.9001,27.37,89,100,3.09,US,1715234376
364,karagandy,49.8019,73.1021,22.97,25,99,8.59,KZ,1715234377
365,khandyga,62.6667,135.6,3.54,95,100,2.91,RU,1715234349
366,kurchum,48.5722,83.6542,20.66,37,1,1.01,KZ,1715234378
367,marquette,46.5333,-87.6335,6.81,85,42,0.89,US,1715234378
368,suntar,62.1444,117.6319,3.62,54,99,3.91,RU,1715234379
369,douglas,41.3,-96.167,15.9,65,0,3.6,US,1715234380
370,borujen,31.9652,51.2873,11.36,31,0,1.63,IR,1715234380
371,lianshan,40.7643,120.8533,23.06,27,31,5.17,CN,1715234381
372,flying fish cove,-10.4217,105.6791,29.82,74,75,6.17,CX,1715234331
373,keflavik,64.0049,-22.5624,2.95,75,75,2.57,IS,1715234331
374,isangel,-19.55,169.2667,25.06,57,40,3.09,VU,1715234383
375,inhambane,-23.865,35.3833,18.99,100,20,0.0,MZ,1715234383
376,imbituba,-28.24,-48.6703,21.76,85,100,6.97,BR,1715234384
377,chita,52.0333,113.55,17.94,15,100,3.0,RU,1715234384
378,mumbai,19.0144,72.8479,31.99,62,20,4.63,IN,1715234304
379,bahia de kino,28.8333,-111.9333,23.14,45,0,1.51,MX,1715234386
380,egersund,58.4513,5.9997,10.05,94,100,2.32,NO,1715234386
381,juneau,58.3019,-134.4197,7.0,93,100,6.69,US,1715234171
382,jamestown,42.097,-79.2353,10.77,93,100,3.09,US,1715234334
383,axim,4.8699,-2.2405,27.54,86,100,1.79,GH,1715234388
384,san juan,-31.5375,-68.5364,8.39,33,0,0.59,AR,1715234307
385,loukhi,66.0764,33.0381,-0.9,71,88,3.24,RU,1715234390
386,manokwari,-0.8667,134.0833,27.22,84,97,0.83,ID,1715234387
387,polyarnyye zori,67.3661,32.4981,-1.81,73,47,3.8,RU,1715234391
388,st. john's,47.5649,-52.7093,6.1,94,100,5.66,CA,1715234364
389,morehead city,34.7229,-76.726,22.79,87,0,2.68,US,1715234392
390,anadyr,64.75,177.4833,-4.72,67,40,6.0,RU,1715234356
391,port douglas,-16.4833,145.4667,24.72,82,79,7.06,AU,1715234393
392,nema,57.5067,50.5011,1.05,54,53,6.86,RU,1715234393
393,hamilton,39.1834,-84.5333,20.43,85,40,5.66,US,1715234352
394,chipinge,-20.1883,32.6236,17.59,72,2,1.08,ZW,1715234395
395,saudarkrokur,65.7461,-19.6394,2.54,79,15,5.36,IS,1715234395
396,bereeda,11.8704,51.0579,32.08,59,76,2.89,SO,1715234396
397,hami,42.8,93.45,24.97,24,96,2.63,CN,1715234396
398,roma,43.2128,-75.4557,11.51,92,100,2.57,US,1715234375
399,sarakhs,36.5449,61.1577,18.06,82,100,6.13,IR,1715234397
400,san fernando de apure,7.8878,-67.4724,26.89,79,100,0.5,VE,1715234398
401,bhigvan,18.3167,74.7667,35.19,30,0,1.35,IN,1715234399
402,akureyri,65.6835,-18.0878,3.02,70,4,2.49,IS,1715234399
403,flin flon,54.7682,-101.865,10.34,65,74,2.52,CA,1715234400
404,new norfolk,-42.7826,147.0587,13.84,83,63,1.34,AU,1715234400
405,aleg,17.0481,-13.9209,29.53,16,35,4.63,MR,1715234401
406,bawku,11.0616,-0.2417,29.29,61,51,2.64,GH,1715234402
407,greenville,35.6127,-77.3663,21.01,88,0,0.0,US,1715234403
408,shakawe,-18.3667,21.85,17.96,39,2,1.94,BW,1715234404
409,itoman,26.1247,127.6694,25.43,56,40,9.26,JP,1715234391
410,shache,38.4167,77.2406,31.84,10,34,1.62,CN,1715234406
411,bulawayo,-20.15,28.5833,15.38,61,0,5.01,ZW,1715234407
412,maues,-3.3836,-57.7186,23.49,96,96,0.89,BR,1715234408
413,san juan de los morros,9.9115,-67.3538,25.62,69,99,1.13,VE,1715234408
414,tindouf,27.6711,-8.1474,22.25,18,0,3.6,DZ,1715234367
415,kovdor,67.5662,30.4758,-3.58,89,74,1.73,RU,1715234410
416,blaj,46.1833,23.9167,13.29,90,100,1.38,RO,1715234410
417,lichinga,-13.3128,35.2406,17.05,88,75,4.63,MZ,1715234411
418,laojunmiao,39.8333,97.7333,17.6,27,100,6.18,CN,1715234412
419,puerto armuelles,8.2833,-82.8667,23.94,95,100,1.34,PA,1715234412
420,selibaby,15.159,-12.1829,31.35,28,65,6.34,MR,1715234413
421,sao felix do xingu,-6.6447,-51.995,21.65,95,11,0.89,BR,1715234414
422,conceicao do coite,-11.5639,-39.2828,20.08,98,21,2.8,BR,1715234415
423,lerwick,60.1545,-1.1494,9.0,98,100,6.67,GB,1715234392
424,morristown,36.214,-83.2949,17.39,86,100,4.12,US,1715234370
425,esmeraldas,-19.7625,-44.3139,18.48,91,0,1.52,BR,1715234417
426,nova vicosa,-17.8919,-39.3719,24.05,89,6,0.78,BR,1715234418
427,cuamba,-14.8031,36.5372,22.24,68,7,0.91,MZ,1715234419
428,le port,-20.9373,55.2919,27.0,63,5,1.09,RE,1715234365
429,san luis de la loma,17.2706,-100.8939,24.97,75,25,2.88,MX,1715234421
430,chokwe,-24.5333,32.9833,21.17,80,3,0.51,MZ,1715234422
431,bakanas,44.8081,76.2772,30.5,22,91,7.35,KZ,1715234422
432,al ghayzah,16.2079,52.176,31.58,60,99,1.69,YE,1715234367
433,midvagur,62.0511,-7.1939,6.46,70,98,3.09,FO,1715234424
434,namibe,-15.1961,12.1522,24.37,60,6,2.99,AO,1715234415
435,fougamou,-1.2154,10.5838,24.29,99,100,0.61,GA,1715234425
436,chegdomyn,51.1167,133.0167,8.0,47,100,6.31,RU,1715234426
437,sahiwal,30.6667,73.1,42.62,8,0,3.88,PK,1715234427
438,weno,7.4515,151.8468,27.16,86,100,7.6,FM,1715234394
439,labytnangi,66.6572,66.4183,-5.9,92,100,12.06,RU,1715234340
440,sterling,39.0062,-77.4286,20.68,77,0,1.54,US,1715234428
441,tual,-5.6667,132.75,28.38,75,34,6.33,ID,1715234391
442,usinsk,65.9939,57.5281,-0.52,89,100,2.68,RU,1715234429
443,magadan,59.5667,150.8,3.07,82,50,2.11,RU,1715234430
444,piti village,13.4626,144.6933,31.03,76,75,5.66,GU,1715234431
445,ulsan,35.5372,129.3167,22.59,39,1,1.52,KR,1715234420
446,cabedelo,-6.9811,-34.8339,25.37,85,21,3.07,BR,1715234434
447,lichtenburg,-26.152,26.1597,16.66,30,0,3.77,ZA,1715234434
448,timimoun,29.2639,0.231,19.21,19,0,6.17,DZ,1715234435
449,karasuk,53.7377,78.0403,20.82,35,91,7.44,RU,1715234436
450,la junta,37.985,-103.5438,10.66,29,9,2.79,US,1715234436
451,saint john,45.2727,-66.0677,7.57,100,100,7.2,CA,1715234408
452,loikaw,19.6742,97.2094,35.86,23,15,3.32,MM,1715234349
453,vadso,70.0744,29.7487,0.09,69,100,4.63,NO,1715234388
454,bereznik,62.8551,42.7072,-1.22,84,100,6.59,RU,1715234335
455,howrah,22.5892,88.3103,31.0,70,75,2.57,IN,1715234366
456,santa vitoria do palmar,-33.5189,-53.3681,10.86,87,35,4.69,BR,1715234439
457,sinabang,2.4803,96.3801,31.0,67,65,1.52,ID,1715234339
458,dogonbadan,30.3586,50.7981,22.05,33,0,4.12,IR,1715234440
459,kyenjojo,0.6328,30.6214,20.2,92,95,2.32,UG,1715234441
460,dunedin,-45.8742,170.5036,6.0,74,9,3.68,NZ,1715234357
461,crane,31.3974,-102.3501,25.11,17,1,1.86,US,1715234360
462,sosnovoborsk,56.1325,93.3589,9.79,39,42,6.7,RU,1715234443
463,porto novo,6.4965,2.6036,27.9,81,100,1.24,BJ,1715234421
464,san ramon de la nueva oran,-23.1322,-64.326,17.46,64,99,1.13,AR,1715234444
465,mogocha,53.7333,119.7667,16.57,16,77,2.24,RU,1715234445
466,prata,-19.3072,-48.9242,18.12,65,1,2.69,BR,1715234445
467,ouadda,8.0777,22.4007,28.8,20,100,2.83,CF,1715234446
468,elverum,60.8819,11.5623,6.61,92,100,2.67,NO,1715234446
469,saldanha,-33.0117,17.9442,5.03,81,0,2.89,ZA,1715234332
470,gufeng,26.9083,118.9819,19.57,65,100,3.23,CN,1715234447
471,querfurt,51.3833,11.6,13.66,75,7,0.49,DE,1715234448
472,hovd,48.0056,91.6419,16.64,29,2,1.52,MN,1715234449
473,gilmer,32.7287,-94.9424,21.03,97,15,2.14,US,1715234449
474,priozersk,61.0393,30.1291,5.05,36,4,3.13,RU,1715234450
475,nagqu,31.5,92.0,3.04,70,100,4.02,CN,1715234450
476,anna regina,7.2644,-58.5077,27.07,81,100,3.8,GY,1715234451
477,san andres,12.5847,-81.7006,29.01,84,20,4.12,CO,1715234452
478,mariental,-24.6333,17.9667,24.05,33,67,6.44,NA,1715234453
479,lata,40.1629,-8.3327,12.82,62,100,2.0,PT,1715234373
480,bamboo flat,11.7,92.7167,34.05,62,40,5.14,IN,1715234454
481,mopti,14.6667,-4.0,31.91,38,51,2.73,ML,1715234455
482,amboasary,-25.0333,46.3833,24.93,64,0,1.49,MG,1715234455
483,menominee,45.1078,-87.6143,11.03,87,0,3.6,US,1715234456
484,arkhangel'sk,64.5401,40.5433,-1.94,75,75,8.0,RU,1715234414
485,sao jose da coroa grande,-8.8978,-35.1478,25.72,86,26,1.66,BR,1715234458
486,siocon,7.7061,122.1353,28.73,73,58,1.41,PH,1715234458
487,geraldton,-28.7667,114.6,27.23,29,40,7.2,AU,1715234459
488,saint-philippe,-21.3585,55.7679,26.77,78,60,7.51,RE,1715234439
489,gaalkacyo,6.7697,47.4308,30.66,61,14,3.71,SO,1715234460
490,lethem,3.3803,-59.7968,25.26,89,100,2.77,GY,1715234461
491,mancio lima,-7.6142,-72.8958,25.04,100,0,0.0,BR,1715234430
492,sinop,41.7711,34.8709,11.24,45,52,0.63,TR,1715234462
493,muynoq,43.7683,59.0214,20.48,47,65,8.68,UZ,1715234463
494,zambezi,-13.5432,23.1047,17.14,52,66,2.92,ZM,1715234463
495,obudu,6.6674,9.1716,25.11,90,98,1.66,NG,1715234464
496,chabahar,25.2919,60.643,31.13,60,0,1.76,IR,1715234465
497,rottingdean,50.8098,-0.0594,11.2,93,83,0.45,GB,1715234465
498,mandalgovi,45.7625,106.2708,15.85,34,52,9.41,MN,1715234364
499,murzuq,25.9155,13.9184,23.41,27,9,7.75,LY,1715234466
500,selfoss,63.9331,-20.9971,2.87,73,59,0.97,IS,1715234467
501,mpika,-11.8343,31.4529,17.05,80,17,4.5,ZM,1715234468
502,shahrak,34.1074,64.3052,21.57,25,93,8.44,AF,1715234428
503,kandahar,31.0,65.75,32.59,14,69,7.66,AF,1715234469
504,poronaysk,49.2167,143.1167,9.88,56,9,11.58,RU,1715234418
505,karratha,-20.7377,116.8463,29.36,28,15,7.57,AU,1715234470
506,ivins,37.1686,-113.6794,15.62,23,97,2.68,US,1715234215
507,miyazaki,31.9111,131.4239,18.97,45,20,3.6,JP,1715234472
508,strugi-krasnyye,58.2675,29.1114,4.51,37,0,4.51,RU,1715234473
509,kavaratti,10.5669,72.642,30.0,68,100,3.35,IN,1715234420
510,takoradi,4.8845,-1.7554,27.75,84,99,2.19,GH,1715234236
511,preobrazheniye,42.9019,133.9064,11.04,81,100,3.33,RU,1715234475
512,murghob,38.1702,73.9667,5.79,36,1,1.97,TJ,1715234475
513,santa cruz do rio pardo,-22.8989,-49.6325,18.87,65,13,1.66,BR,1715234476
514,zhaodong,46.0833,125.9833,20.87,15,35,3.55,CN,1715234477
515,san-pedro,4.7485,-6.6363,26.59,88,98,1.65,CI,1715234477
516,rodolfo sanchez taboada,31.7167,-116.5667,15.61,73,1,1.34,MX,1715234478
517,padang,-0.9492,100.3543,33.03,78,23,2.84,ID,1715234478
518,abepura,-2.6333,140.5833,27.45,89,20,1.03,ID,1715234479
519,anka,12.1138,5.9243,29.87,46,99,3.92,NG,1715234479
520,ga-rankuwa,-25.6169,27.9947,18.69,38,0,2.46,ZA,1715234480
521,voss,60.623,6.4229,9.74,92,100,1.9,NO,1715234481
522,saint-francois,46.4154,3.9054,9.12,100,100,1.54,FR,1715234481
523,cole harbour,44.6724,-63.4751,7.66,91,100,7.2,CA,1715234483
524,zhezqazghan,47.7833,67.7667,24.32,46,20,6.0,KZ,1715234483
525,polyarnyy,69.1989,33.4478,-2.19,85,98,1.71,RU,1715234345
526,argo,37.6333,22.7333,18.57,63,100,0.88,GR,1715234412
527,shingu,33.7333,135.9833,18.37,35,1,0.41,JP,1715234428
528,saint-pierre,-21.3393,55.4781,26.82,65,75,10.29,RE,1715234368
529,brak,27.5496,14.2714,20.52,48,6,9.33,LY,1715234486
530,ambon,-3.6954,128.1814,30.08,74,40,2.06,ID,1715234368
531,as sulayyil,20.4607,45.5779,29.14,31,17,9.69,SA,1715234488
532,yugorsk,61.3133,63.3319,6.61,95,100,6.36,RU,1715234488
533,senanga,-16.1167,23.2667,18.02,36,9,3.45,ZM,1715234489
534,ulety,51.3572,112.4849,15.9,39,100,5.19,RU,1715234489
535,laguna,38.421,-121.4238,21.05,31,0,7.2,US,1715234355
536,zabol,32.25,67.25,25.9,19,87,2.4,AF,1715234490
537,caleta de carquin,-11.0925,-77.6267,19.18,91,94,2.37,PE,1715234491
538,fraserburgh,57.6874,-2.0184,13.95,90,100,3.52,GB,1715234492
539,mallow,52.1333,-8.6333,10.57,94,100,1.91,IE,1715234492
540,la passe,45.5549,-0.8967,11.68,88,17,5.4,FR,1715234377
541,sarmiento,-45.5882,-69.07,6.02,68,83,2.33,AR,1715234493
542,santo antonio,-6.3106,-35.4789,22.78,96,10,2.64,BR,1715234494
543,boca suno,-0.7167,-77.1333,21.18,98,100,0.64,EC,1715234495
544,kawerau,-38.1,176.7,11.72,70,56,0.89,NZ,1715234495
545,paramonga,-10.6667,-77.8333,19.18,91,92,1.84,PE,1715234496
546,khovd,48.0056,91.6419,16.64,29,2,1.52,MN,1715234449
547,barra de santo antonio,-9.4047,-35.5072,25.6,85,11,4.26,BR,1715234368
548,leiyang,26.4024,112.8591,20.71,93,100,1.23,CN,1715234498
549,figuig (centre),32.1089,-1.2286,17.76,19,2,2.94,MA,1715234498
550,lasem,-6.6922,111.4527,30.73,66,100,3.88,ID,1715234499
551,mamuju,-2.6748,118.8885,28.77,81,51,2.02,ID,1715234499
552,uyar,55.81,94.3153,11.03,40,50,8.62,RU,1715234500
553,moree,-29.4667,149.85,23.83,41,90,3.76,AU,1715234501
554,porto murtinho,-21.6989,-57.8825,26.72,73,100,3.17,BR,1715234502
555,nyrob,60.733,56.7202,-1.14,80,97,4.45,RU,1715234502
556,aswan,24.0934,32.907,25.61,15,0,2.57,EG,1715234503
557,bochum,51.4833,7.2167,13.71,87,12,0.56,DE,1715234504
558,hiriyur,13.9456,76.6192,34.68,32,85,1.91,IN,1715234504
559,kapuskasing,49.4169,-82.4331,6.05,75,75,3.09,CA,1715234368
560,robore,-18.3333,-59.75,22.61,89,76,1.6,BO,1715234330
561,bel ombre,-4.6167,55.4167,27.91,83,75,5.66,SC,1715234506
562,gore,-46.1028,168.9436,5.18,81,13,1.62,NZ,1715234507
563,birao,10.2849,22.7882,30.75,13,68,4.59,CF,1715234507
564,nar'yan-mar,67.6713,53.087,-4.94,88,100,7.15,RU,1715234368
565,dubbo,-32.25,148.6167,22.07,49,40,4.12,AU,1715234472
566,bac lieu,9.285,105.7244,33.17,58,52,8.27,VN,1715234509
567,hobyo,5.3505,48.5268,31.13,65,10,5.63,SO,1715234510
568,sokoni,-6.4333,39.55,25.92,87,93,7.09,TZ,1715234510
569,brookings,44.3114,-96.7984,12.19,85,100,2.57,US,1715234168
570,sandnessjoen,66.0217,12.6316,4.29,85,100,9.02,NO,1715234511
571,simanggang,1.2472,111.4528,33.99,59,40,0.51,MY,1715234512
572,irbit,57.6705,63.071,6.16,85,100,5.1,RU,1715234513
573,chibougamau,49.9168,-74.3659,4.79,70,100,3.6,CA,1715234396
